[
  {
    "name": "עיר עתיקה של עכו",
    "lat": 32.92074,
    "lon": 35.06688,
    "text": "מאוכלסת ברוברטים צלבניים, חומות, סמטאות וחנויות היסטוריות.",
    "image": "turn0image0",
    "address": "העיר העתיקה, עכו"
  },
  {
    "name": "אולמות האבירים (המצודה ההוספיטלרית)",
    "lat": 32.92350,
    "lon": 35.07220,
    "text": "אולמות גותיים תת‑קרקעיים של מסדר ההוספיטלר.",
    "image": "turn0image3",
    "address": "רחוב ויצמן, עכו"
  },
  {
    "name": "מנהרת הטמפלרים",
    "lat": 32.92380,
    "lon": 35.07300,
    "text": "מנהרה תת‑קרקעית של האבירים שחיברה את הנמל והמצודה.",
    "image": "turn0image1",
    "address": "העיר העתיקה, עכו"
  },
  {
    "name": "החאן הטורקי (חאן אל‑עומדן)",
    "lat": 32.9217,
    "lon": 35.0736,
    "text": "חאן עות'מאני מהמאה ה‑18, סמוך לנמל.",
    "image": "turn0image5",
    "address": "רחוב המעפילים, עכו"
  },
  {
    "name": "השוק המקומי",
    "lat": 32.92300,
    "lon": 35.06800,
    "text": "שוק צבעוני עם דוכנים, תבלינים ומאכלים מקומיים.",
    "image": null,
    "address": "השוק, העיר העתיקה, עכו"
  },
  {
    "name": "מסגד אל‑ג'זאר",
    "lat": 32.92420,
    "lon": 35.07250,
    "text": "מסגד עות'מאני מרשים עם מגדל מינרט וכיפה ירוקה.",
    "image": null,
    "address": "רחוב אל ג'זאר, עכו"
  },
  {
    "name": "הנמל העתיק",
    "lat": 32.92250,
    "lon": 35.06500,
    "text": "נמל עתיק עם טיילת, דיג ושקיעות מרהיבות.",
    "image": null,
    "address": "הנמל העתיק, עכו"
  },
  {
    "name": "הרחצה הטורקית (חמאם)",
    "lat": 32.92330,
    "lon": 35.07180,
    "text": "מרחצאות עות'מאניים משוחזרים עם מוזיאון.",
    "image": null,
    "address": "רחוב אל ג'זאר, עכו"
  },
  {
    "name": "הגן הבהאי של עכו",
    "lat": 32.92500,
    "lon": 35.07400,
    "text": "גנים מטופחים סביב קבר מייסד הדת הבהאית.",
    "image": null,
    "address": "רחוב הגליל, עכו"
  },
  {
    "name": "חומות העיר והמבט על נמל עכו",
    "lat": 32.92330,
    "lon": 35.06600,
    "text": "החומות ההיסטוריות של עכו עם נוף לעיר ולים.",
    "image": null,
    "address": "חומות העיר, עכו"
  }
]